[
  {
    "id": 3453216,
    "name": "Kuala Lumpur",
    "name2": "Kuala Lumpur",
    "country": "Malaysia",
    "countryCode": "MY",
    "latitude": 3.147777777,
    "longitude": 101.695277777,
    "population": 1982100,
    "area": 243.6
  },
  {
    "id": 56557,
    "name": "Kolkata",
    "name2": "Kolkata",
    "country": "India",
    "countryCode": "IN",
    "latitude": 22.5726723,
    "longitude": 88.3638815,
    "population": 4496694,
    "area": 206.1
  },
  {
    "id": 56590,
    "name": "Kochi",
    "name2": "Kochi",
    "country": "India",
    "countryCode": "IN",
    "latitude": 9.966666666,
    "longitude": 76.283333333,
    "population": 677381,
    "area": 94.88
  },
  {
    "id": 17,
    "name": "Kazan",
    "name2": "Kazan",
    "country": "Russia",
    "countryCode": "RU",
    "latitude": 55.79639,
    "longitude": 49.108891,
    "population": 1286000,
    "area": 515.8
  },
  {
    "id": 3462288,
    "name": "Kanpur",
    "name2": "Kanpur",
    "country": "India",
    "countryCode": "IN",
    "latitude": 26.4725,
    "longitude": 80.331111111,
    "population": 2823249,
    "area": 260.0
  },
  {
    "id": 3706047,
    "name": "Jinan",
    "name2": "Jinan",
    "country": "China",
    "countryCode": "CN",
    "latitude": 36.666666666,
    "longitude": 116.983333333,
    "population": 9202432,
    "area": 10250.0
  },
  {
    "id": 3453246,
    "name": "Jakarta",
    "name2": "Jakarta",
    "country": "Indonesia",
    "countryCode": "ID",
    "latitude": -6.2,
    "longitude": 106.83333,
    "population": 10562088,
    "area": 661.5
  },
  {
    "id": 147594,
    "name": "Jaipur",
    "name2": "Jaipur",
    "country": "India",
    "countryCode": "IN",
    "latitude": 26.916666666,
    "longitude": 75.866666666,
    "population": 3073350,
    "area": 467.0
  },
  {
    "id": 16,
    "name": "Izmir",
    "name2": "Izmir",
    "country": "Turkey",
    "countryCode": "TR",
    "latitude": 38.423733,
    "longitude": 27.142826,
    "population": 4367000,
    "area": 12.0
  },
  {
    "id": 56003,
    "name": "Hyderabad",
    "name2": "Hyderabad",
    "country": "India",
    "countryCode": "IN",
    "latitude": 17.38405,
    "longitude": 78.45636,
    "population": 9305000,
    "area": 650.0
  },
  {
    "id": 3712261,
    "name": "Hong Kong",
    "name2": "Hong Kong",
    "country": "Hong Kong",
    "countryCode": "HK",
    "latitude": 22.278333333,
    "longitude": 114.158611111,
    "population": 7500700,
    "area": 1110.0
  },
  {
    "id": 34314,
    "name": "Helsinki",
    "name2": "Helsinki",
    "country": "Finland",
    "countryCode": "FI",
    "latitude": 60.17556,
    "longitude": 24.93417,
    "population": 664921,
    "area": 213.7
  },
  {
    "id": 3711194,
    "name": "Harbin",
    "name2": "Harbin",
    "country": "China",
    "countryCode": "CN",
    "latitude": 45.75,
    "longitude": 126.633333333,
    "population": 10009854,
    "area": 53068.0
  },
  {
    "id": 3453078,
    "name": "Hanoi",
    "name2": "Hanoi",
    "country": "Vietnam",
    "countryCode": "VN",
    "latitude": 21.0245,
    "longitude": 105.84117,
    "population": 8330800,
    "area": 360.0
  },
  {
    "id": 3712691,
    "name": "Hamburg",
    "name2": "Hamburg",
    "country": "Germany",
    "countryCode": "DE",
    "latitude": 53.55,
    "longitude": 10.0,
    "population": 1853935,
    "area": 755.2
  },
  {
    "id": 147609,
    "name": "Gurugram",
    "name2": "Gurugram",
    "country": "India",
    "countryCode": "IN",
    "latitude": 28.466666666,
    "longitude": 77.033333333,
    "population": 876824,
    "area": 232.0
  },
  {
    "id": 3620568,
    "name": "Genoa",
    "name2": "Genoa",
    "country": "Italy",
    "countryCode": "IT",
    "latitude": 44.41286,
    "longitude": 8.95729,
    "population": 580097,
    "area": 243.0
  },
  {
    "id": 3712486,
    "name": "Fuzhou",
    "name2": "Fuzhou",
    "country": "China",
    "countryCode": "CN",
    "latitude": 26.06139,
    "longitude": 119.30611,
    "population": 8291268,
    "area": 12230.0
  },
  {
    "id": 3709516,
    "name": "Dongguan",
    "name2": "Dongguan",
    "country": "China",
    "countryCode": "CN",
    "latitude": 23.01797,
    "longitude": 113.74866,
    "population": 10466625,
    "area": 2465.0
  },
  {
    "id": 3453188,
    "name": "Doha",
    "name2": "Doha",
    "country": "Qatar",
    "countryCode": "QA",
    "latitude": 25.3,
    "longitude": 51.533333333,
    "population": 1186023,
    "area": 132.0
  },
  {
    "id": 112785,
    "name": "Dnipro",
    "name2": "Dnipro",
    "country": "Ukraine",
    "countryCode": "UA",
    "latitude": 48.46664,
    "longitude": 35.04066,
    "population": 980948,
    "area": 409.7
  },
  {
    "id": 3519923,
    "name": "Delhi",
    "name2": "Delhi",
    "country": "India",
    "countryCode": "IN",
    "latitude": 28.666666666,
    "longitude": 77.216666666,
    "population": 9879172,
    "area": 1483.0
  },
  {
    "id": 3709610,
    "name": "Dalian",
    "name2": "Dalian",
    "country": "China",
    "countryCode": "CN",
    "latitude": 38.91222,
    "longitude": 121.60222,
    "population": 7450785,
    "area": 13240.0
  },
  {
    "id": 25261,
    "name": "Copenhagen",
    "name2": "Copenhagen",
    "country": "Denmark",
    "countryCode": "DK",
    "latitude": 55.676111111,
    "longitude": 12.568888888,
    "population": 644431,
    "area": 179.8
  },
  {
    "id": 3710839,
    "name": "Chongqing",
    "name2": "Chongqing",
    "country": "China",
    "countryCode": "CN",
    "latitude": 29.55,
    "longitude": 106.506944444,
    "population": 7739000,
    "area": 82403.0
  },
  {
    "id": 54935,
    "name": "Chennai",
    "name2": "Chennai",
    "country": "India",
    "countryCode": "IN",
    "latitude": 13.0825,
    "longitude": 80.275,
    "population": 10265000,
    "area": 426.0
  },
  {
    "id": 3706435,
    "name": "Chengdu",
    "name2": "Chengdu",
    "country": "China",
    "countryCode": "CN",
    "latitude": 30.66,
    "longitude": 104.063333333,
    "population": 20937757,
    "area": 14380.0
  },
  {
    "id": 3706463,
    "name": "Changzhou",
    "name2": "Changzhou",
    "country": "China",
    "countryCode": "CN",
    "latitude": 31.77359,
    "longitude": 119.95401,
    "population": 5278121,
    "area": 4385.0
  },
  {
    "id": 3712193,
    "name": "Changsha",
    "name2": "Changsha",
    "country": "China",
    "countryCode": "CN",
    "latitude": 28.19874,
    "longitude": 112.97087,
    "population": 10047914,
    "area": 11820.0
  },
  {
    "id": 3712192,
    "name": "Changchun",
    "name2": "Changchun",
    "country": "China",
    "countryCode": "CN",
    "latitude": 43.9,
    "longitude": 125.2,
    "population": 9066906,
    "area": 24730.0
  },
  {
    "id": 129412,
    "name": "Caracas",
    "name2": "Caracas",
    "country": "Venezuela",
    "countryCode": "VE",
    "latitude": 10.5,
    "longitude": -66.933333333,
    "population": 2245744,
    "area": 433.0
  },
  {
    "id": 3712927,
    "name": "Cairo",
    "name2": "Cairo",
    "country": "Egypt",
    "countryCode": "EG",
    "latitude": 30.044444444,
    "longitude": 31.235833333,
    "population": 9606916,
    "area": 3085.0
  },
  {
    "id": 3453093,
    "name": "Bucharest",
    "name2": "Bucharest",
    "country": "Romania",
    "countryCode": "RO",
    "latitude": 44.4,
    "longitude": 26.083333333,
    "population": 1716983,
    "area": 239.0
  },
  {
    "id": 7918,
    "name": "Brussels",
    "name2": "Brussels",
    "country": "Belgium",
    "countryCode": "BE",
    "latitude": 50.85045,
    "longitude": 4.34878,
    "population": 188737,
    "area": 32.61
  },
  {
    "id": 1,
    "name": "Foshan",
    "name2": "Foshan",
    "country": "China",
    "countryCode": "CN",
    "latitude": 23.0218,
    "longitude": 113.1219,
    "population": 8721010,
    "area": 3848.0
  },
  {
    "id": 2,
    "name": "Guangzhou",
    "name2": "Guangzhou",
    "country": "China",
    "countryCode": "CN",
    "latitude": 23.1291,
    "longitude": 113.2644,
    "population": 13965000,
    "area": 7434.0
  },
  {
    "id": 3,
    "name": "Guiyang",
    "name2": "Guiyang",
    "country": "China",
    "countryCode": "CN",
    "latitude": 26.6476,
    "longitude": 106.6302,
    "population": 4506134,
    "area": 8034.0
  },
  {
    "id": 4,
    "name": "Hangzhou",
    "name2": "Hangzhou",
    "country": "China",
    "countryCode": "CN",
    "latitude": 30.2741,
    "longitude": 120.1552,
    "population": 8237000,
    "area": 16850.0
  },
  {
    "id": 5,
    "name": "Hefei",
    "name2": "Hefei",
    "country": "China",
    "countryCode": "CN",
    "latitude": 31.8206,
    "longitude": 117.229,
    "population": 9465881,
    "area": 11434.25
  },
  {
    "id": 58036,
    "name": "Isfahan",
    "name2": "Isfahan",
    "country": "Iran",
    "countryCode": "IR",
    "latitude": 32.6525,
    "longitude": 51.674722222,
    "population": 1961260,
    "area": 551.0
  },
  {
    "id": 6,
    "name": "Hohhot",
    "name2": "Hohhot",
    "country": "China",
    "countryCode": "CN",
    "latitude": 40.8415,
    "longitude": 111.752,
    "population": 2944889,
    "area": 11434.25
  },
  {
    "id": 7,
    "name": "Jinhua",
    "name2": "Jinhua",
    "country": "China",
    "countryCode": "CN",
    "latitude": 29.0781,
    "longitude": 119.6476,
    "population": 1463990,
    "area": 2049.5
  },
  {
    "id": 8,
    "name": "Ningbo",
    "name2": "Ningbo",
    "country": "China",
    "countryCode": "CN",
    "latitude": 29.8683,
    "longitude": 121.544,
    "population": 8202000,
    "area": 8816.0
  },
  {
    "id": 3453253,
    "name": "Kaohsiung",
    "name2": "Kaohsiung",
    "country": "Taiwan",
    "countryCode": "TW",
    "latitude": 22.615,
    "longitude": 120.2975,
    "population": 2733566,
    "area": 2952.0
  },
  {
    "id": 89176,
    "name": "Manila",
    "name2": "Manila",
    "country": "Philippines",
    "countryCode": "PH",
    "latitude": 14.6042,
    "longitude": 120.9822,
    "population": 1846513,
    "area": 42.88
  },
  {
    "id": 57159,
    "name": "Mashhad",
    "name2": "Mashhad",
    "country": "Iran",
    "countryCode": "IR",
    "latitude": 36.306944444,
    "longitude": 59.604166666,
    "population": 3208000,
    "area": 328.0
  },
  {
    "id": 3525154,
    "name": "Berlin",
    "name2": "Berlin",
    "country": "Germany",
    "countryCode": "DE",
    "latitude": 52.5233,
    "longitude": 13.41377,
    "population": 3677472,
    "area": 891.8
  },
  {
    "id": 3449775,
    "name": "Munich",
    "name2": "Munich",
    "country": "Germany",
    "countryCode": "DE",
    "latitude": 48.13452,
    "longitude": 11.571,
    "population": 1487708,
    "area": 310.7
  },
  {
    "id": 143461,
    "name": "Swabia",
    "name2": "Swabia",
    "country": "Germany",
    "countryCode": "DE",
    "latitude": 48.5,
    "longitude": 10.5,
    "population": 1857991,
    "area": 9993.97
  },
  {
    "id": 3453268,
    "name": "Buenos Aires",
    "name2": "Buenos Aires",
    "country": "Argentina",
    "countryCode": "AR",
    "latitude": -34.599722222,
    "longitude": -58.381944444,
    "population": 3120612,
    "area": 4758.0
  },
  {
    "id": 1474,
    "name": "Córdoba",
    "name2": "Cordoba",
    "country": "Argentina",
    "countryCode": "AR",
    "latitude": -31.416666666,
    "longitude": -64.183333333,
    "population": 1329604,
    "area": 13771.0
  },
  {
    "id": 132245,
    "name": "La Matanza Partido",
    "name2": "La Matanza Partido",
    "country": "Argentina",
    "countryCode": "AR",
    "latitude": -34.716666666,
    "longitude": -58.633333333,
    "population": 1775816,
    "area": 325.71
  },
  {
    "id": 1494,
    "name": "Rosario",
    "name2": "Rosario",
    "country": "Argentina",
    "countryCode": "AR",
    "latitude": -32.9575,
    "longitude": -60.639444444,
    "population": 1193605,
    "area": 178.7
  },
  {
    "id": 4299,
    "name": "Adelaide",
    "name2": "Adelaide",
    "country": "Australia",
    "countryCode": "AU",
    "latitude": -34.9275,
    "longitude": 138.6,
    "population": 1387290,
    "area": 3259.8
  },
  {
    "id": 5499,
    "name": "Brisbane",
    "name2": "Brisbane",
    "country": "Australia",
    "countryCode": "AU",
    "latitude": -27.467777777,
    "longitude": 153.027777777,
    "population": 2360241,
    "area": 15842.0
  },
  {
    "id": 4970,
    "name": "Melbourne",
    "name2": "Melbourne",
    "country": "Australia",
    "countryCode": "AU",
    "latitude": -37.814166666,
    "longitude": 144.963055555,
    "population": 4529500,
    "area": 9993.0
  },
  {
    "id": 4835,
    "name": "Perth",
    "name2": "Perth",
    "country": "Australia",
    "countryCode": "AU",
    "latitude": -31.95224,
    "longitude": 115.8614,
    "population": 2141834,
    "area": 6418.0
  },
  {
    "id": 4935,
    "name": "Sydney",
    "name2": "Sydney",
    "country": "Australia",
    "countryCode": "AU",
    "latitude": -33.86785,
    "longitude": 151.20732,
    "population": 4840600,
    "area": 12367.7
  },
  {
    "id": 3453053,
    "name": "Vienna",
    "name2": "Vienna",
    "country": "Austria",
    "countryCode": "AT",
    "latitude": 48.208333333,
    "longitude": 16.3725,
    "population": 1973403,
    "area": 414.6
  },
  {
    "id": 3548781,
    "name": "East Flanders",
    "name2": "East Flanders",
    "country": "Belgium",
    "countryCode": "BE",
    "latitude": 51.0,
    "longitude": 3.75,
    "population": 1505053,
    "area": 3007.0
  },
  {
    "id": 3548809,
    "name": "Flemish Brabant",
    "name2": "Flemish Brabant",
    "country": "Belgium",
    "countryCode": "BE",
    "latitude": 50.916666666,
    "longitude": 4.583333333,
    "population": 1138489,
    "area": 2118.0
  },
  {
    "id": 3548839,
    "name": "Hainaut",
    "name2": "Hainaut",
    "country": "Belgium",
    "countryCode": "BE",
    "latitude": 50.5,
    "longitude": 3.916666666,
    "population": 1341645,
    "area": 3813.0
  },
  {
    "id": 3548780,
    "name": "West Flanders",
    "name2": "West Flanders",
    "country": "Belgium",
    "countryCode": "BE",
    "latitude": 51.0,
    "longitude": 3.0,
    "population": 1195796,
    "area": 3197.0
  },
  {
    "id": 3548836,
    "name": "province of Liege",
    "name2": "province of Liege",
    "country": "Belgium",
    "countryCode": "BE",
    "latitude": 50.633333333,
    "longitude": 5.566666666,
    "population": 1105326,
    "area": 3857.0
  },
  {
    "id": 3596001,
    "name": "Belo Horizonte",
    "name2": "Belo Horizonte",
    "country": "Brazil",
    "countryCode": "BR",
    "latitude": -19.92623,
    "longitude": -43.93982,
    "population": 2375444,
    "area": 331.4
  },
  {
    "id": 3597944,
    "name": "Belém",
    "name2": "Belem",
    "country": "Brazil",
    "countryCode": "BR",
    "latitude": -1.34341,
    "longitude": -48.41816,
    "population": 1392031,
    "area": 1059.4
  },
  {
    "id": 3560125,
    "name": "Brasília",
    "name2": "Brasilia",
    "country": "Brazil",
    "countryCode": "BR",
    "latitude": -15.79159,
    "longitude": -47.89558,
    "population": 2562963,
    "area": 5802.0
  },
  {
    "id": 9717,
    "name": "Campinas",
    "name2": "Campinas",
    "country": "Brazil",
    "countryCode": "BR",
    "latitude": -22.900913888,
    "longitude": -47.057294444,
    "population": 1213792,
    "area": 795.7
  },
  {
    "id": 3451516,
    "name": "Curitiba",
    "name2": "Curitiba",
    "country": "Brazil",
    "countryCode": "BR",
    "latitude": -25.429722222,
    "longitude": -49.271944444,
    "population": 1948626,
    "area": 432.17
  },
  {
    "id": 3641602,
    "name": "Fortaleza",
    "name2": "Fortaleza",
    "country": "Brazil",
    "countryCode": "BR",
    "latitude": -3.72271,
    "longitude": -38.52465,
    "population": 2447409,
    "area": 313.8
  },
  {
    "id": 9290,
    "name": "Goiânia",
    "name2": "Goiania",
    "country": "Brazil",
    "countryCode": "BR",
    "latitude": -16.67861,
    "longitude": -49.25389,
    "population": 1536097,
    "area": 739.0
  },
  {
    "id": 9334,
    "name": "Guarulhos",
    "name2": "Guarulhos",
    "country": "Brazil",
    "countryCode": "BR",
    "latitude": -23.46278,
    "longitude": -46.53333,
    "population": 1392121,
    "area": 318.68
  },
  {
    "id": 3517467,
    "name": "Maceió",
    "name2": "Maceio",
    "country": "Brazil",
    "countryCode": "BR",
    "latitude": -9.665833333,
    "longitude": -35.735,
    "population": 1025360,
    "area": 509.6
  },
  {
    "id": 135159,
    "name": "Manaus",
    "name2": "Manaus",
    "country": "Brazil",
    "countryCode": "BR",
    "latitude": -3.04361,
    "longitude": -60.01282,
    "population": 2219580,
    "area": 11401.0
  },
  {
    "id": 8846,
    "name": "Porto Alegre",
    "name2": "Porto Alegre",
    "country": "Brazil",
    "countryCode": "BR",
    "latitude": -30.032777777,
    "longitude": -51.23,
    "population": 1488252,
    "area": 496.8
  },
  {
    "id": 3655157,
    "name": "Recife",
    "name2": "Recife",
    "country": "Brazil",
    "countryCode": "BR",
    "latitude": -8.01175,
    "longitude": -34.95291,
    "population": 1536934,
    "area": 217.8
  },
  {
    "id": 137508,
    "name": "Rio de Janeiro",
    "name2": "Rio de Janeiro",
    "country": "Brazil",
    "countryCode": "BR",
    "latitude": -22.911111111,
    "longitude": -43.205555555,
    "population": 6747815,
    "area": 1255.0
  },
  {
    "id": 8353,
    "name": "Salvador",
    "name2": "Salvador",
    "country": "Brazil",
    "countryCode": "BR",
    "latitude": -12.97563,
    "longitude": -38.49096,
    "population": 2886698,
    "area": 21040.0
  },
  {
    "id": 8627,
    "name": "São Gonçalo",
    "name2": "Sao Goncalo",
    "country": "Brazil",
    "countryCode": "BR",
    "latitude": -22.826944444,
    "longitude": -43.053888888,
    "population": 1091737,
    "area": 249.0
  },
  {
    "id": 3681117,
    "name": "São Luís",
    "name2": "Sao Luis",
    "country": "Brazil",
    "countryCode": "BR",
    "latitude": -2.64949,
    "longitude": -44.30441,
    "population": 1011943,
    "area": 834.8
  },
  {
    "id": 8668,
    "name": "São Paulo",
    "name2": "Sao Paulo",
    "country": "Brazil",
    "countryCode": "BR",
    "latitude": -23.550394444,
    "longitude": -46.633947222,
    "population": 12325232,
    "area": 1521.0
  },
  {
    "id": 10509,
    "name": "Calgary",
    "name2": "Calgary",
    "country": "Canada",
    "countryCode": "CA",
    "latitude": 51.05011,
    "longitude": -114.08529,
    "population": 1306784,
    "area": 825.3
  },
  {
    "id": 10232,
    "name": "Edmonton",
    "name2": "Edmonton",
    "country": "Canada",
    "countryCode": "CA",
    "latitude": 53.533333333,
    "longitude": -113.5,
    "population": 1010899,
    "area": 684.4
  },
  {
    "id": 140079,
    "name": "Montreal",
    "name2": "Montreal",
    "country": "Canada",
    "countryCode": "CA",
    "latitude": 45.508888888,
    "longitude": -73.561666666,
    "population": 1762949,
    "area": 4259.0
  },
  {
    "id": 3145402,
    "name": "Montérégie",
    "name2": "Monteregie",
    "country": "Canada",
    "countryCode": "CA",
    "latitude": 45.383333333,
    "longitude": -73.1,
    "population": 1460933,
    "area": 11850.0
  },
  {
    "id": 10908,
    "name": "Toronto",
    "name2": "Toronto",
    "country": "Canada",
    "countryCode": "CA",
    "latitude": 43.670277777,
    "longitude": -79.386666666,
    "population": 2731571,
    "area": 630.2
  },
  {
    "id": 133523,
    "name": "Chittagong",
    "name2": "Chittagong",
    "country": "Bangladesh",
    "countryCode": "BD",
    "latitude": 22.335,
    "longitude": 91.8325,
    "population": 2581643,
    "area": 168.07
  },
  {
    "id": 133509,
    "name": "Chuadanga",
    "name2": "Chuadanga",
    "country": "Bangladesh",
    "countryCode": "BD",
    "latitude": 23.6418,
    "longitude": 88.8577,
    "population": 1129015,
    "area": 1157.42
  },
  {
    "id": 133468,
    "name": "Dhaka",
    "name2": "Dhaka",
    "country": "Bangladesh",
    "countryCode": "BD",
    "latitude": 23.728888888,
    "longitude": 90.394444444,
    "population": 16800000,
    "area": 306.4
  },
  {
    "id": 133486,
    "name": "Khulna",
    "name2": "Khulna",
    "country": "Bangladesh",
    "countryCode": "BD",
    "latitude": 22.816666666,
    "longitude": 89.55,
    "population": 1400689,
    "area": 64.78
  },
  {
    "id": 7448,
    "name": "Sofia",
    "name2": "Sofia",
    "country": "Bulgaria",
    "countryCode": "BG",
    "latitude": 42.697886,
    "longitude": 23.321726,
    "population": 1383435,
    "area": 492.0
  },
  {
    "id": 12508,
    "name": "Santiago",
    "name2": "Santiago",
    "country": "Chile",
    "countryCode": "CL",
    "latitude": -33.45,
    "longitude": -70.666666666,
    "population": 6257516,
    "area": 850.0
  },
  {
    "id": 3594084,
    "name": "Changshu City",
    "name2": "Changshu City",
    "country": "China",
    "countryCode": "CN",
    "latitude": 31.64615,
    "longitude": 120.74221,
    "population": 1677050,
    "area": 1260.0
  },
  {
    "id": 3585413,
    "name": "Chongqing Shi",
    "name2": "Chongqing Shi",
    "country": "China",
    "countryCode": "CN",
    "latitude": 29.562777777,
    "longitude": 106.552777777,
    "population": 7457599,
    "area": 82500.0
  },
  {
    "id": 15292,
    "name": "Daqing",
    "name2": "Daqing",
    "country": "China",
    "countryCode": "CN",
    "latitude": 46.583333333,
    "longitude": 125.0,
    "population": 1604027,
    "area": 21000.0
  },
  {
    "id": 3654096,
    "name": "Handan",
    "name2": "Handan",
    "country": "China",
    "countryCode": "CN",
    "latitude": 36.58312,
    "longitude": 114.48341,
    "population": 1358318,
    "area": 12070.0
  },
  {
    "id": 3653569,
    "name": "Hengyang",
    "name2": "Hengyang",
    "country": "China",
    "countryCode": "CN",
    "latitude": 26.88946,
    "longitude": 112.61888,
    "population": 1075516,
    "area": 15280.0
  },
  {
    "id": 14661,
    "name": "Luoyang",
    "name2": "Luoyang",
    "country": "China",
    "countryCode": "CN",
    "latitude": 34.683611111,
    "longitude": 112.453611111,
    "population": 1390581,
    "area": 15230.0
  },
  {
    "id": 3649328,
    "name": "Meishan",
    "name2": "Meishan",
    "country": "China",
    "countryCode": "CN",
    "latitude": 30.043888888,
    "longitude": 103.836944444,
    "population": 1107742,
    "area": 7173.82
  },
  {
    "id": 3584170,
    "name": "Nanchang",
    "name2": "Nanchang",
    "country": "China",
    "countryCode": "CN",
    "latitude": 28.68396,
    "longitude": 115.85306,
    "population": 2357839,
    "area": 7402.0
  },
  {
    "id": 3615367,
    "name": "Barranquilla",
    "name2": "Barranquilla",
    "country": "Colombia",
    "countryCode": "CO",
    "latitude": 10.96854,
    "longitude": -74.78132,
    "population": 1206319,
    "area": 155.0
  },
  {
    "id": 68313,
    "name": "Fukuoka",
    "name2": "Fukuoka",
    "country": "Japan",
    "countryCode": "JP",
    "latitude": 33.590138888,
    "longitude": 130.401722222,
    "population": 1603043,
    "area": 343.4
  },
  {
    "id": 64619,
    "name": "Brescia",
    "name2": "Brescia",
    "country": "Italy",
    "countryCode": "IT",
    "latitude": 45.538888888,
    "longitude": 10.220280555,
    "population": 196745,
    "area": 90.3
  },
  {
    "id": 3672475,
    "name": "Bilbao",
    "name2": "Bilbao",
    "country": "Spain",
    "countryCode": "ES",
    "latitude": 43.26271,
    "longitude": -2.92528,
    "population": 345821,
    "area": 41.6
  },
  {
    "id": 147710,
    "name": "Bengaluru",
    "name2": "Bengaluru",
    "country": "India",
    "countryCode": "IN",
    "latitude": 12.9811,
    "longitude": 77.5746,
    "population": 990923,
    "area": 741.0
  },
  {
    "id": 3435617,
    "name": "Barcelona",
    "name2": "Barcelona",
    "country": "Spain",
    "countryCode": "ES",
    "latitude": 41.3825,
    "longitude": 2.176944444,
    "population": 1636193,
    "area": 101.9
  },
  {
    "id": 2989764,
    "name": "Baku",
    "name2": "Baku",
    "country": "Azerbaijan",
    "countryCode": "AZ",
    "latitude": 40.366655555,
    "longitude": 49.835183333,
    "population": 2300500,
    "area": 2140.0
  },
  {
    "id": 48676,
    "name": "Athens",
    "name2": "Athens",
    "country": "Greece",
    "countryCode": "GR",
    "latitude": 37.98376,
    "longitude": 23.72784,
    "population": 664046,
    "area": 38.96
  },
  {
    "id": 15,
    "name": "Almaty",
    "name2": "Almaty",
    "country": "Kazakhstan",
    "countryCode": "KZ",
    "latitude": 43.222,
    "longitude": 76.8512,
    "population": 1777000,
    "area": 682.0
  },
  {
    "id": 3537763,
    "name": "Amsterdam",
    "name2": "Amsterdam",
    "country": "Netherlands",
    "countryCode": "NL",
    "latitude": 52.366666666,
    "longitude": 4.883333333,
    "population": 917923,
    "area": 219.3
  },
  {
    "id": 26903,
    "name": "Algiers",
    "name2": "Algiers",
    "country": "Algeria",
    "countryCode": "DZ",
    "latitude": 36.776388888,
    "longitude": 3.058611111,
    "population": 3415811,
    "area": 363.0
  },
  {
    "id": 56924,
    "name": "Ahmedabad",
    "name2": "Ahmedabad",
    "country": "India",
    "countryCode": "IN",
    "latitude": 23.03,
    "longitude": 72.58,
    "population": 7645000,
    "area": 505.0
  },
  {
    "id": 3453064,
    "name": "Yerevan",
    "name2": "Yerevan",
    "country": "Armenia",
    "countryCode": "AM",
    "latitude": 40.181388888,
    "longitude": 44.514444444,
    "population": 1092800,
    "area": 223.0
  },
  {
    "id": 3705817,
    "name": "Tokyo",
    "name2": "Tokyo",
    "country": "Japan",
    "countryCode": "JP",
    "latitude": 35.689444444,
    "longitude": 139.691666666,
    "population": 14047594,
    "area": 2191.0
  },
  {
    "id": 3020322,
    "name": "Stockholm",
    "name2": "Stockholm",
    "country": "Sweden",
    "countryCode": "SE",
    "latitude": 59.329444444,
    "longitude": 18.068611111,
    "population": 978770,
    "area": 188.0
  },
  {
    "id": 3709752,
    "name": "Kyoto",
    "name2": "Kyoto",
    "country": "Japan",
    "countryCode": "JP",
    "latitude": 35.011611111,
    "longitude": 135.768111111,
    "population": 1448964,
    "area": 827.8
  },
  {
    "id": 68406,
    "name": "Kōbe",
    "name2": "Kobe",
    "country": "Japan",
    "countryCode": "JP",
    "latitude": 34.690166666,
    "longitude": 135.195444444,
    "population": 1521707,
    "area": 552.3
  },
  {
    "id": 45406,
    "name": "Glasgow",
    "name2": "Glasgow",
    "country": "United Kingdom",
    "countryCode": "GB",
    "latitude": 55.861111111,
    "longitude": -4.25,
    "population": 635640,
    "area": 175.0
  },
  {
    "id": 3643093,
    "name": "Beijing",
    "name2": "Beijing",
    "country": "China",
    "countryCode": "CN",
    "latitude": 40.2,
    "longitude": 116.4167,
    "population": 14933274,
    "area": 16410.54
  },
  {
    "id": 3707896,
    "name": "Taizhou",
    "name2": "Taizhou",
    "country": "China",
    "countryCode": "CN",
    "latitude": 28.66266,
    "longitude": 121.43312,
    "population": 6622888,
    "area": 9411.0
  },
  {
    "id": 3453191,
    "name": "Bangkok",
    "name2": "Bangkok",
    "country": "Thailand",
    "countryCode": "TH",
    "latitude": 13.75,
    "longitude": 100.516666666,
    "population": 5676648,
    "area": 1570.0
  },
  {
    "id": 3707702,
    "name": "Wenzhou",
    "name2": "Wenzhou",
    "country": "China",
    "countryCode": "CN",
    "latitude": 27.999128,
    "longitude": 120.656075,
    "population": 9572903,
    "area": 12060.0
  },
  {
    "id": 3711009,
    "name": "Suzhou",
    "name2": "Suzhou",
    "country": "China",
    "countryCode": "CN",
    "latitude": 33.8697,
    "longitude": 117.20569,
    "population": 5324476,
    "area": 8488.0
  },
  {
    "id": 3707503,
    "name": "Macau",
    "name2": "Macau",
    "country": "China",
    "countryCode": "CN",
    "latitude": 22.166666666,
    "longitude": 113.55,
    "population": 682100,
    "area": 118.0
  },
  {
    "id": 3453265,
    "name": "Bogotá",
    "name2": "Bogota",
    "country": "Colombia",
    "countryCode": "CO",
    "latitude": 4.60971,
    "longitude": -74.08175,
    "population": 7743955,
    "area": 1640.0
  },
  {
    "id": 84640,
    "name": "Oslo",
    "name2": "Oslo",
    "country": "Norway",
    "countryCode": "NO",
    "latitude": 59.913333333,
    "longitude": 10.738888888,
    "population": 709037,
    "area": 454.0
  },
  {
    "id": 142074,
    "name": "Cali",
    "name2": "Cali",
    "country": "Colombia",
    "countryCode": "CO",
    "latitude": 3.44,
    "longitude": -76.519722222,
    "population": 2471474,
    "area": 619.0
  },
  {
    "id": 3694717,
    "name": "Medellín",
    "name2": "Medellin",
    "country": "Colombia",
    "countryCode": "CO",
    "latitude": 6.25,
    "longitude": -75.58333,
    "population": 1999979,
    "area": 382.0
  },
  {
    "id": 17356,
    "name": "Havana",
    "name2": "Havana",
    "country": "Cuba",
    "countryCode": "CU",
    "latitude": 23.136666666,
    "longitude": -82.358888888,
    "population": 2492618,
    "area": 728.3
  },
  {
    "id": 3453125,
    "name": "Prague",
    "name2": "Prague",
    "country": "Czech Republic",
    "countryCode": "CZ",
    "latitude": 50.08804,
    "longitude": 14.42076,
    "population": 1275406,
    "area": 496.2
  },
  {
    "id": 3182773,
    "name": "Guayaquil",
    "name2": "Guayaquil",
    "country": "Ecuador",
    "countryCode": "EC",
    "latitude": -2.183333333,
    "longitude": -79.883333333,
    "population": 2723665,
    "area": 344.5
  },
  {
    "id": 26597,
    "name": "Quito",
    "name2": "Quito",
    "country": "Ecuador",
    "countryCode": "EC",
    "latitude": -0.22,
    "longitude": -78.5125,
    "population": 2011388,
    "area": 290.0
  },
  {
    "id": 26400,
    "name": "Giza",
    "name2": "Giza",
    "country": "Egypt",
    "countryCode": "EG",
    "latitude": 29.987,
    "longitude": 31.2118,
    "population": 5598402,
    "area": 85153.0
  },
  {
    "id": 2978601,
    "name": "Shubra El-Kheima",
    "name2": "Shubra El-Kheima",
    "country": "Egypt",
    "countryCode": "EG",
    "latitude": 30.128611111,
    "longitude": 31.242222222,
    "population": 1025569,
    "area": 30.0
  },
  {
    "id": 144661,
    "name": "Alpes-Maritimes",
    "name2": "Alpes-Maritimes",
    "country": "France",
    "countryCode": "FR",
    "latitude": 43.833333333,
    "longitude": 7.166666666,
    "population": 1094283,
    "area": 4298.6
  },
  {
    "id": 144649,
    "name": "Bouches-du-Rhône",
    "name2": "Bouches-du-Rhone",
    "country": "France",
    "countryCode": "FR",
    "latitude": 43.5,
    "longitude": 5.083333333,
    "population": 2043110,
    "area": 5087.5
  },
  {
    "id": 144633,
    "name": "Essonne",
    "name2": "Essonne",
    "country": "France",
    "countryCode": "FR",
    "latitude": 48.5,
    "longitude": 2.283333333,
    "population": 1301659,
    "area": 1804.4
  },
  {
    "id": 144628,
    "name": "Gironde",
    "name2": "Gironde",
    "country": "France",
    "countryCode": "FR",
    "latitude": 44.69306,
    "longitude": -0.414,
    "population": 1623749,
    "area": 9999.94
  },
  {
    "id": 144619,
    "name": "Haute-Garonne",
    "name2": "Haute-Garonne",
    "country": "France",
    "countryCode": "FR",
    "latitude": 43.416666666,
    "longitude": 1.5,
    "population": 1400039,
    "area": 6309.34
  },
  {
    "id": 144623,
    "name": "Hauts-de-Seine",
    "name2": "Hauts-de-Seine",
    "country": "France",
    "countryCode": "FR",
    "latitude": 48.833333333,
    "longitude": 2.2,
    "population": 1624357,
    "area": 176.0
  },
  {
    "id": 144616,
    "name": "Hérault",
    "name2": "Herault",
    "country": "France",
    "countryCode": "FR",
    "latitude": 43.610919444,
    "longitude": 3.877230555,
    "population": 1175623,
    "area": 6102.01
  },
  {
    "id": 144614,
    "name": "Ille-et-Vilaine",
    "name2": "Ille-et-Vilaine",
    "country": "France",
    "countryCode": "FR",
    "latitude": 48.166666666,
    "longitude": -1.666666666,
    "population": 1079498,
    "area": 774.72
  },
  {
    "id": 144612,
    "name": "Isère",
    "name2": "Isere",
    "country": "France",
    "countryCode": "FR",
    "latitude": 45.183333333,
    "longitude": 5.716666666,
    "population": 1271166,
    "area": 7430.68
  },
  {
    "id": 144607,
    "name": "Loire-Atlantique",
    "name2": "Loire-Atlantique",
    "country": "France",
    "countryCode": "FR",
    "latitude": 47.333333333,
    "longitude": -1.666666666,
    "population": 1429272,
    "area": 6815.38
  },
  {
    "id": 144595,
    "name": "Moselle",
    "name2": "Moselle",
    "country": "France",
    "countryCode": "FR",
    "latitude": 49.033889,
    "longitude": 6.661944,
    "population": 1046543,
    "area": 15358.63
  },
  {
    "id": 144594,
    "name": "Nord",
    "name2": "Nord",
    "country": "France",
    "countryCode": "FR",
    "latitude": 50.621388888,
    "longitude": 3.032222222,
    "population": 2608346,
    "area": 5742.8
  },
  {
    "id": 144571,
    "name": "Paris",
    "name2": "Paris",
    "country": "France",
    "countryCode": "FR",
    "latitude": 48.856666666,
    "longitude": 2.352222222,
    "population": 2145906,
    "area": 105.4
  },
  {
    "id": 144590,
    "name": "Pas-de-Calais",
    "name2": "Pas-de-Calais",
    "country": "France",
    "countryCode": "FR",
    "latitude": 50.95,
    "longitude": 1.85,
    "population": 1465278,
    "area": 6671.35
  },
  {
    "id": 144580,
    "name": "Seine-Maritime",
    "name2": "Seine-Maritime",
    "country": "France",
    "countryCode": "FR",
    "latitude": 49.666666666,
    "longitude": 0.833333333,
    "population": 1255633,
    "area": 6278.13
  },
  {
    "id": 144581,
    "name": "Seine-Saint-Denis",
    "name2": "Seine-Saint-Denis",
    "country": "France",
    "countryCode": "FR",
    "latitude": 48.9,
    "longitude": 2.483333333,
    "population": 1644903,
    "area": 12.36
  },
  {
    "id": 144582,
    "name": "Seine-et-Marne",
    "name2": "Seine-et-Marne",
    "country": "France",
    "countryCode": "FR",
    "latitude": 48.6,
    "longitude": 3.0,
    "population": 1421197,
    "area": 5915.0
  },
  {
    "id": 144575,
    "name": "Val-d'Oise",
    "name2": "Val-d'Oise",
    "country": "France",
    "countryCode": "FR",
    "latitude": 49.061944444,
    "longitude": 2.086111111,
    "population": 1249674,
    "area": 1245.91
  },
  {
    "id": 144574,
    "name": "Val-de-Marne",
    "name2": "Val-de-Marne",
    "country": "France",
    "countryCode": "FR",
    "latitude": 48.75,
    "longitude": 2.416666666,
    "population": 1407124,
    "area": 245.0
  },
  {
    "id": 144573,
    "name": "Var",
    "name2": "Var",
    "country": "France",
    "countryCode": "FR",
    "latitude": 43.400833333,
    "longitude": 6.21,
    "population": 1076711,
    "area": 5973.0
  },
  {
    "id": 144568,
    "name": "Yvelines",
    "name2": "Yvelines",
    "country": "France",
    "countryCode": "FR",
    "latitude": 48.833333333,
    "longitude": 1.916666666,
    "population": 1448207,
    "area": 2280.0
  },
  {
    "id": 48845,
    "name": "Tegucigalpa",
    "name2": "Tegucigalpa",
    "country": "Honduras",
    "countryCode": "HN",
    "latitude": 14.106111111,
    "longitude": -87.204166666,
    "population": 1682725,
    "area": 1502.19
  },
  {
    "id": 3548673,
    "name": "Kowloon",
    "name2": "Kowloon",
    "country": "Hong Kong",
    "countryCode": "HK",
    "latitude": 22.316666666,
    "longitude": 114.183333333,
    "population": 2108419,
    "area": 46.62
  },
  {
    "id": 51643,
    "name": "Budapest",
    "name2": "Budapest",
    "country": "Hungary",
    "countryCode": "HU",
    "latitude": 47.498333333,
    "longitude": 19.040833333,
    "population": 1706851,
    "area": 525.2
  },
  {
    "id": 3180051,
    "name": "Bari",
    "name2": "Bari",
    "country": "Italy",
    "countryCode": "IT",
    "latitude": 41.1253,
    "longitude": 16.8667,
    "population": 1251994,
    "area": 3825.0
  },
  {
    "id": 3180044,
    "name": "Bologna",
    "name2": "Bologna",
    "country": "Italy",
    "countryCode": "IT",
    "latitude": 44.4939,
    "longitude": 11.3428,
    "population": 1014619,
    "area": 3703.0
  },
  {
    "id": 3180045,
    "name": "Catania",
    "name2": "Catania",
    "country": "Italy",
    "countryCode": "IT",
    "latitude": 37.51666667,
    "longitude": 15.06666667,
    "population": 1107702,
    "area": 3574.0
  },
  {
    "id": 3157218,
    "name": "Florence",
    "name2": "Florence",
    "country": "Italy",
    "countryCode": "IT",
    "latitude": 43.7714,
    "longitude": 11.2542,
    "population": 1011349,
    "area": 3514.0
  },
  {
    "id": 3158300,
    "name": "Milan",
    "name2": "Milan",
    "country": "Italy",
    "countryCode": "IT",
    "latitude": 45.4642,
    "longitude": 9.19034,
    "population": 3202397,
    "area": 1580.0
  },
  {
    "id": 3180059,
    "name": "Naples",
    "name2": "Naples",
    "country": "Italy",
    "countryCode": "IT",
    "latitude": 40.8333,
    "longitude": 14.25,
    "population": 3107006,
    "area": 1170.0
  },
  {
    "id": 3180049,
    "name": "Palermo",
    "name2": "Palermo",
    "country": "Italy",
    "countryCode": "IT",
    "latitude": 38.11555556,
    "longitude": 13.36138889,
    "population": 1252588,
    "area": 5009.0
  },
  {
    "id": 3112002,
    "name": "Rome",
    "name2": "Rome",
    "country": "Italy",
    "countryCode": "IT",
    "latitude": 41.96667,
    "longitude": 12.66667,
    "population": 4342212,
    "area": 5363.0
  },
  {
    "id": 3169492,
    "name": "Turin",
    "name2": "Turin",
    "country": "Italy",
    "countryCode": "IT",
    "latitude": 45.0667,
    "longitude": 7.7,
    "population": 2205104,
    "area": 6827.0
  },
  {
    "id": 68672,
    "name": "Hiroshima",
    "name2": "Hiroshima",
    "country": "Japan",
    "countryCode": "JP",
    "latitude": 34.391388888,
    "longitude": 132.451944444,
    "population": 1198021,
    "area": 8479.0
  },
  {
    "id": 67844,
    "name": "Kawasaki",
    "name2": "Kawasaki",
    "country": "Japan",
    "countryCode": "JP",
    "latitude": 35.530888888,
    "longitude": 139.703,
    "population": 1539522,
    "area": 144.3
  },
  {
    "id": 68263,
    "name": "Nagoya",
    "name2": "Nagoya",
    "country": "Japan",
    "countryCode": "JP",
    "latitude": 35.181388888,
    "longitude": 136.906388888,
    "population": 2326844,
    "area": 326.4
  },
  {
    "id": 149783,
    "name": "Saitama",
    "name2": "Saitama",
    "country": "Japan",
    "countryCode": "JP",
    "latitude": 35.861388888,
    "longitude": 139.645555555,
    "population": 1325843,
    "area": 3798.0
  },
  {
    "id": 69746,
    "name": "Sapporo",
    "name2": "Sapporo",
    "country": "Japan",
    "countryCode": "JP",
    "latitude": 43.062083333,
    "longitude": 141.354388888,
    "population": 1959313,
    "area": 1120.0
  },
  {
    "id": 69426,
    "name": "Sendai",
    "name2": "Sendai",
    "country": "Japan",
    "countryCode": "JP",
    "latitude": 38.268222222,
    "longitude": 140.869416666,
    "population": 1061177,
    "area": 788.09
  },
  {
    "id": 68523,
    "name": "Yokohama",
    "name2": "Yokohama",
    "country": "Japan",
    "countryCode": "JP",
    "latitude": 35.450333333,
    "longitude": 139.634222222,
    "population": 3757630,
    "area": 437.4
  },
  {
    "id": 3453222,
    "name": "Pyongyang",
    "name2": "Pyongyang",
    "country": "North Korea",
    "countryCode": "KP",
    "latitude": 39.03,
    "longitude": 125.73,
    "population": 2863000,
    "area": 4023.1
  },
  {
    "id": 3453077,
    "name": "Busan",
    "name2": "Busan",
    "country": "South Korea",
    "countryCode": "KR",
    "latitude": 35.18,
    "longitude": 129.075,
    "population": 3453198,
    "area": 770.0
  },
  {
    "id": 70425,
    "name": "Changwon",
    "name2": "Changwon",
    "country": "South Korea",
    "countryCode": "KR",
    "latitude": 35.228055555,
    "longitude": 128.681111111,
    "population": 1046054,
    "area": 748.1
  },
  {
    "id": 3453048,
    "name": "Daegu",
    "name2": "Daegu",
    "country": "South Korea",
    "countryCode": "KR",
    "latitude": 35.871666666,
    "longitude": 128.601666666,
    "population": 2444412,
    "area": 886.6
  },
  {
    "id": 3453291,
    "name": "Daejeon",
    "name2": "Daejeon",
    "country": "South Korea",
    "countryCode": "KR",
    "latitude": 36.351,
    "longitude": 127.385,
    "population": 1511214,
    "area": 539.85
  },
  {
    "id": 70221,
    "name": "Goyang",
    "name2": "Goyang",
    "country": "South Korea",
    "countryCode": "KR",
    "latitude": 37.656388888,
    "longitude": 126.835,
    "population": 1061929,
    "area": 286.1
  },
  {
    "id": 3453279,
    "name": "Gwangju",
    "name2": "Gwangju",
    "country": "South Korea",
    "countryCode": "KR",
    "latitude": 35.166666666,
    "longitude": 126.916666666,
    "population": 1490092,
    "area": 501.2
  },
  {
    "id": 3453112,
    "name": "Incheon",
    "name2": "Incheon",
    "country": "South Korea",
    "countryCode": "KR",
    "latitude": 37.463888888,
    "longitude": 126.648611111,
    "population": 2936117,
    "area": 1070.0
  },
  {
    "id": 3453247,
    "name": "Seoul",
    "name2": "Seoul",
    "country": "South Korea",
    "countryCode": "KR",
    "latitude": 37.56,
    "longitude": 126.99,
    "population": 9668465,
    "area": 605.2
  },
  {
    "id": 69947,
    "name": "Suwon",
    "name2": "Suwon",
    "country": "South Korea",
    "countryCode": "KR",
    "latitude": 37.285833333,
    "longitude": 127.01,
    "population": 1234300,
    "area": 121.0
  },
  {
    "id": 3453283,
    "name": "Ulsan",
    "name2": "Ulsan",
    "country": "South Korea",
    "countryCode": "KR",
    "latitude": 35.55,
    "longitude": 129.316666666,
    "population": 1150116,
    "area": 1060.0
  },
  {
    "id": 151419,
    "name": "Yongin",
    "name2": "Yongin",
    "country": "South Korea",
    "countryCode": "KR",
    "latitude": 37.236111111,
    "longitude": 127.201111111,
    "population": 1042229,
    "area": 591.3
  },
  {
    "id": 78711,
    "name": "Ciudad Juárez",
    "name2": "Ciudad Juarez",
    "country": "Mexico",
    "countryCode": "MX",
    "latitude": 31.739444444,
    "longitude": -106.486944444,
    "population": 1321004,
    "area": 4853.0
  },
  {
    "id": 75154,
    "name": "Ciudad Nezahualcóyotl",
    "name2": "Ciudad Nezahualcoyotl",
    "country": "Mexico",
    "countryCode": "MX",
    "latitude": 19.40061,
    "longitude": -99.01483,
    "population": 1104585,
    "area": 21355.0
  },
  {
    "id": 78657,
    "name": "Guadalajara",
    "name2": "Guadalajara",
    "country": "Mexico",
    "countryCode": "MX",
    "latitude": 20.676666666,
    "longitude": -103.3475,
    "population": 1460148,
    "area": 187.9
  },
  {
    "id": 3504902,
    "name": "Gustavo A. Madero",
    "name2": "Gustavo A. Madero",
    "country": "Mexico",
    "countryCode": "MX",
    "latitude": 19.49016,
    "longitude": -99.10978,
    "population": 1185772,
    "area": 94.07
  },
  {
    "id": 74353,
    "name": "Iztapalapa",
    "name2": "Iztapalapa",
    "country": "Mexico",
    "countryCode": "MX",
    "latitude": 19.35529,
    "longitude": -99.06224,
    "population": 1835486,
    "area": 1479.0
  },
  {
    "id": 3184760,
    "name": "Juárez Municipality",
    "name2": "Juarez Municipality",
    "country": "Mexico",
    "countryCode": "MX",
    "latitude": 31.45,
    "longitude": -106.583333333,
    "population": 1391180,
    "area": 3561.0
  },
  {
    "id": 78105,
    "name": "León de Los Aldama",
    "name2": "Leon de Los Aldama",
    "country": "Mexico",
    "countryCode": "MX",
    "latitude": 21.121944444,
    "longitude": -101.683333333,
    "population": 1579803,
    "area": 1220.0
  },
  {
    "id": 3229203,
    "name": "Mexicali",
    "name2": "Mexicali",
    "country": "Mexico",
    "countryCode": "MX",
    "latitude": 32.50513,
    "longitude": -115.14771,
    "population": 1049792,
    "area": 13700.0
  },
  {
    "id": 3453102,
    "name": "Mexico City",
    "name2": "Mexico City",
    "country": "Mexico",
    "countryCode": "MX",
    "latitude": 19.419444444,
    "longitude": -99.145555555,
    "population": 9209944,
    "area": 1490.0
  },
  {
    "id": 2970136,
    "name": "Monterrey",
    "name2": "Monterrey",
    "country": "Mexico",
    "countryCode": "MX",
    "latitude": 25.671388888,
    "longitude": -100.308611111,
    "population": 1135512,
    "area": 324.8
  },
  {
    "id": 3498839,
    "name": "Puebla",
    "name2": "Puebla",
    "country": "Mexico",
    "countryCode": "MX",
    "latitude": 19.0412967,
    "longitude": -98.2061996,
    "population": 1576259,
    "area": 546.0
  },
  {
    "id": 155353,
    "name": "San Cristóbal Ecatepec",
    "name2": "San Cristobal Ecatepec",
    "country": "Mexico",
    "countryCode": "MX",
    "latitude": 19.599069444,
    "longitude": -99.049158611,
    "population": 1655015,
    "area": 186.9
  },
  {
    "id": 3256510,
    "name": "Tijuana",
    "name2": "Tijuana",
    "country": "Mexico",
    "countryCode": "MX",
    "latitude": 32.50223,
    "longitude": -116.97212,
    "population": 1922523,
    "area": 636.88
  },
  {
    "id": 76741,
    "name": "Zapopan",
    "name2": "Zapopan",
    "country": "Mexico",
    "countryCode": "MX",
    "latitude": 20.720277777,
    "longitude": -103.391944444,
    "population": 1476491,
    "area": 893.03
  },
  {
    "id": 3457241,
    "name": "Ulaanbaatar",
    "name2": "Ulaanbaatar",
    "country": "Mongolia",
    "countryCode": "MN",
    "latitude": 47.921357,
    "longitude": 106.905515,
    "population": 1515593,
    "area": 4704.0
  },
  {
    "id": 72525,
    "name": "Mandalay",
    "name2": "Mandalay",
    "country": "Myanmar",
    "countryCode": "MM",
    "latitude": 21.983055555,
    "longitude": 96.084444444,
    "population": 1225546,
    "area": 163.8
  },
  {
    "id": 2969214,
    "name": "Nay Pyi Taw District",
    "name2": "Nay Pyi Taw District",
    "country": "Myanmar",
    "countryCode": "MM",
    "latitude": 19.8822,
    "longitude": 96.14182,
    "population": 1160000,
    "area": 7054.0
  },
  {
    "id": 72725,
    "name": "Naypyidaw",
    "name2": "Naypyidaw",
    "country": "Myanmar",
    "countryCode": "MM",
    "latitude": 19.7475,
    "longitude": 96.115,
    "population": 1160242,
    "area": 7054.0
  },
  {
    "id": 72371,
    "name": "Yangon",
    "name2": "Yangon",
    "country": "Myanmar",
    "countryCode": "MM",
    "latitude": 16.795,
    "longitude": 96.16,
    "population": 6874000,
    "area": 598.8
  },
  {
    "id": 87187,
    "name": "Arequipa",
    "name2": "Arequipa",
    "country": "Peru",
    "countryCode": "PE",
    "latitude": -16.398763888,
    "longitude": -71.536883333,
    "population": 1008290,
    "area": 2992.53
  },
  {
    "id": 87053,
    "name": "Callao",
    "name2": "Callao",
    "country": "Peru",
    "countryCode": "PE",
    "latitude": -12.061111111,
    "longitude": -77.133333333,
    "population": 1129854,
    "area": 146.98
  },
  {
    "id": 86391,
    "name": "Lima",
    "name2": "Lima",
    "country": "Peru",
    "countryCode": "PE",
    "latitude": -12.04318,
    "longitude": -77.02824,
    "population": 9943800,
    "area": 2672.28
  },
  {
    "id": 3085658,
    "name": "San Juan de Lurigancho",
    "name2": "San Juan de Lurigancho",
    "country": "Peru",
    "countryCode": "PE",
    "latitude": -12.002222222,
    "longitude": -77.008333333,
    "population": 1117629,
    "area": 131.2
  },
  {
    "id": 85460,
    "name": "Trujillo",
    "name2": "Trujillo",
    "country": "Peru",
    "countryCode": "PE",
    "latitude": -8.111944444,
    "longitude": -79.028888888,
    "population": 1148668,
    "area": 164.5
  },
  {
    "id": 92150,
    "name": "Warsaw",
    "name2": "Warsaw",
    "country": "Poland",
    "countryCode": "PL",
    "latitude": 52.23,
    "longitude": 21.011111111,
    "population": 1860281,
    "area": 517.2
  },
  {
    "id": 104518,
    "name": "Chelyabinsk",
    "name2": "Chelyabinsk",
    "country": "Russia",
    "countryCode": "RU",
    "latitude": 55.15,
    "longitude": 61.4,
    "population": 1196680,
    "area": 530.0
  },
  {
    "id": 104975,
    "name": "Novosibirsk",
    "name2": "Novosibirsk",
    "country": "Russia",
    "countryCode": "RU",
    "latitude": 55.033333333,
    "longitude": 82.916666666,
    "population": 1625631,
    "area": 502.7
  },
  {
    "id": 104378,
    "name": "Omsk",
    "name2": "Omsk",
    "country": "Russia",
    "countryCode": "RU",
    "latitude": 54.966666666,
    "longitude": 73.383333333,
    "population": 1172070,
    "area": 567.0
  },
  {
    "id": 101348,
    "name": "Perm",
    "name2": "Perm",
    "country": "Russia",
    "countryCode": "RU",
    "latitude": 58.013888888,
    "longitude": 56.248888888,
    "population": 1051583,
    "area": 803
  },
  {
    "id": 101498,
    "name": "Rostov-on-Don",
    "name2": "Rostov-on-Don",
    "country": "Russia",
    "countryCode": "RU",
    "latitude": 47.233333333,
    "longitude": 39.716666666,
    "population": 1137704,
    "area": 354.0
  },
  {
    "id": 101769,
    "name": "Samara",
    "name2": "Samara",
    "country": "Russia",
    "countryCode": "RU",
    "latitude": 53.183333333,
    "longitude": 50.116666666,
    "population": 1156659,
    "area": 541.4
  },
  {
    "id": 5000000,
    "name": "Ufa",
    "name2": "Ufa",
    "country": "Russia",
    "countryCode": "RU",
    "latitude": 54.726111111,
    "longitude": 55.9475,
    "population": 1128787,
    "area": 707.9
  },
  {
    "id": 100844,
    "name": "Volgograd",
    "name2": "Volgograd",
    "country": "Russia",
    "countryCode": "RU",
    "latitude": 48.708611111,
    "longitude": 44.514722222,
    "population": 1004763,
    "area": 859.4
  },
  {
    "id": 103747,
    "name": "Yekaterinburg",
    "name2": "Yekaterinburg",
    "country": "Russia",
    "countryCode": "RU",
    "latitude": 56.835555555,
    "longitude": 60.612777777,
    "population": 1468833,
    "area": 1111.0
  },
  {
    "id": 3516906,
    "name": "Singapore",
    "name2": "Singapore",
    "country": "Singapore",
    "countryCode": "SG",
    "latitude": 1.3,
    "longitude": 103.8,
    "population": 5866139,
    "area": 719.0
  },
  {
    "id": 174504,
    "name": "City of Cape Town",
    "name2": "Cape Town",
    "country": "South Africa",
    "countryCode": "ZA",
    "latitude": -34.0,
    "longitude": 18.5,
    "population": 4005016,
    "area": 2461.0
  },
  {
    "id": 57751,
    "name": "Tehran",
    "name2": "Tehran",
    "country": "Iran",
    "countryCode": "IR",
    "latitude": 35.7,
    "longitude": 51.416666666,
    "population": 8693706,
    "area": 730.0
  },
  {
    "id": 3453056,
    "name": "Tbilisi",
    "name2": "Tbilisi",
    "country": "Georgia",
    "countryCode": "GE",
    "latitude": 41.71667,
    "longitude": 44.83333,
    "population": 1202731,
    "area": 726.0
  },
  {
    "id": 3453199,
    "name": "Tashkent",
    "name2": "Tashkent",
    "country": "Uzbekistan",
    "countryCode": "UZ",
    "latitude": 41.311111111,
    "longitude": 69.279722222,
    "population": 2955700,
    "area": 334.8
  },
  {
    "id": 131204,
    "name": "Johannesburg",
    "name2": "Johannesburg",
    "country": "South Africa",
    "countryCode": "ZA",
    "latitude": -26.204361111,
    "longitude": 28.041638888,
    "population": 4434827,
    "area": 1640.0
  },
  {
    "id": 131403,
    "name": "Soweto",
    "name2": "Soweto",
    "country": "South Africa",
    "countryCode": "ZA",
    "latitude": -26.267777777,
    "longitude": 27.858611111,
    "population": 1271628,
    "area": 16548
  },
  {
    "id": 3453137,
    "name": "Adana",
    "name2": "Adana",
    "country": "Turkey",
    "countryCode": "TR",
    "latitude": 37.00262,
    "longitude": 35.31346,
    "population": 1797136,
    "area": 1950.0
  },
  {
    "id": 3453098,
    "name": "Ankara",
    "name2": "Ankara",
    "country": "Turkey",
    "countryCode": "TR",
    "latitude": 39.93576,
    "longitude": 32.83869,
    "population": 5747325,
    "area": 24520.0
  },
  {
    "id": 3453121,
    "name": "Antalya",
    "name2": "Antalya",
    "country": "Turkey",
    "countryCode": "TR",
    "latitude": 36.90812,
    "longitude": 30.69556,
    "population": 2426356,
    "area": 1420.0
  },
  {
    "id": 3453129,
    "name": "Bursa",
    "name2": "Bursa",
    "country": "Turkey",
    "countryCode": "TR",
    "latitude": 40.19133,
    "longitude": 29.08054,
    "population": 2994521,
    "area": 11043
  },
  {
    "id": 3453180,
    "name": "Denizli",
    "name2": "Denizli",
    "country": "Turkey",
    "countryCode": "TR",
    "latitude": 37.773055555,
    "longitude": 29.087777777,
    "population": 1027782,
    "area": 798.75
  },
  {
    "id": 3453203,
    "name": "Diyarbakır",
    "name2": "Diyarbakir",
    "country": "Turkey",
    "countryCode": "TR",
    "latitude": 37.910833333,
    "longitude": 40.236666666,
    "population": 1732396,
    "area": 11692.0
  },
  {
    "id": 3453198,
    "name": "Gaziantep",
    "name2": "Gaziantep",
    "country": "Turkey",
    "countryCode": "TR",
    "latitude": 37.062777777,
    "longitude": 37.379166666,
    "population": 2028563,
    "area": 6819.0
  },
  {
    "id": 3453072,
    "name": "Istanbul",
    "name2": "Istanbul",
    "country": "Turkey",
    "countryCode": "TR",
    "latitude": 41.01,
    "longitude": 28.960277777,
    "population": 15462452,
    "area": 5343.0
  },
  {
    "id": 3453276,
    "name": "Kayseri",
    "name2": "Kayseri",
    "country": "Turkey",
    "countryCode": "TR",
    "latitude": 38.7225,
    "longitude": 35.4875,
    "population": 1389680,
    "area": 17040
  },
  {
    "id": 3453175,
    "name": "Konya",
    "name2": "Konya",
    "country": "Turkey",
    "countryCode": "TR",
    "latitude": 37.87277,
    "longitude": 32.49214,
    "population": 2232374,
    "area": 38873.0
  },
  {
    "id": 3453307,
    "name": "Mersin",
    "name2": "Mersin",
    "country": "Turkey",
    "countryCode": "TR",
    "latitude": 36.8,
    "longitude": 34.616666666,
    "population": 1814468,
    "area": 15480.0
  },
  {
    "id": 3453057,
    "name": "Samsun",
    "name2": "Samsun",
    "country": "Turkey",
    "countryCode": "TR",
    "latitude": 41.286666666,
    "longitude": 36.33,
    "population": 1335716,
    "area": 1060.0
  },
  {
    "id": 108962,
    "name": "Şanlıurfa",
    "name2": "Sanliurfa",
    "country": "Turkey",
    "countryCode": "TR",
    "latitude": 37.158333333,
    "longitude": 38.791666666,
    "population": 1985753,
    "area": 18584.0
  },
  {
    "id": 112777,
    "name": "Kharkiv",
    "name2": "Kharkiv",
    "country": "Ukraine",
    "countryCode": "UA",
    "latitude": 49.9925,
    "longitude": 36.231111111,
    "population": 1433886,
    "area": 350.0
  },
  {
    "id": 3520102,
    "name": "Kyiv",
    "name2": "Kyiv",
    "country": "Ukraine",
    "countryCode": "UA",
    "latitude": 50.45,
    "longitude": 30.523611111,
    "population": 2952301,
    "area": 839.2
  },
  {
    "id": 111296,
    "name": "Odesa",
    "name2": "Odesa",
    "country": "Ukraine",
    "countryCode": "UA",
    "latitude": 46.48572,
    "longitude": 30.74383,
    "population": 1010537,
    "area": 162.4
  },
  {
    "id": 659,
    "name": "Abu Dhabi",
    "name2": "Abu Dhabi",
    "country": "United Arab Emirates",
    "countryCode": "AE",
    "latitude": 24.451111111,
    "longitude": 54.396944444,
    "population": 1483000,
    "area": 67340
  },
  {
    "id": 3519123,
    "name": "Dubai",
    "name2": "Dubai",
    "country": "United Arab Emirates",
    "countryCode": "AE",
    "latitude": 25.269722222,
    "longitude": 55.309444444,
    "population": 3331420,
    "area": 4114.0
  },
  {
    "id": 900,
    "name": "Sharjah",
    "name2": "Sharjah",
    "country": "United Arab Emirates",
    "countryCode": "AE",
    "latitude": 25.3575,
    "longitude": 55.391944444,
    "population": 1247749,
    "area": 2590.0
  },
  {
    "id": 3672250,
    "name": "Birmingham",
    "name2": "Birmingham",
    "country": "United Kingdom",
    "countryCode": "GB",
    "latitude": 52.48048,
    "longitude": -1.89823,
    "population": 1141374,
    "area": 2335.0
  },
  {
    "id": 144762,
    "name": "Essex",
    "name2": "Essex",
    "country": "United Kingdom",
    "countryCode": "GB",
    "latitude": 51.83333,
    "longitude": 0.58333,
    "population": 1477764,
    "area": 3674.0
  },
  {
    "id": 3181305,
    "name": "Glamorgan",
    "name2": "Glamorgan",
    "country": "United Kingdom",
    "countryCode": "GB",
    "latitude": 51.666666666,
    "longitude": -3.666666666,
    "population": 1321256,
    "area": 2100.0
  },
  {
    "id": 144753,
    "name": "Hampshire",
    "name2": "Hampshire",
    "country": "United Kingdom",
    "countryCode": "GB",
    "latitude": 51.0,
    "longitude": -1.25,
    "population": 1376316,
    "area": 3679.0
  },
  {
    "id": 3536687,
    "name": "Kent",
    "name2": "Kent",
    "country": "United Kingdom",
    "countryCode": "GB",
    "latitude": 51.16667,
    "longitude": 0.66667,
    "population": 1568623,
    "area": 3735.0
  },
  {
    "id": 144745,
    "name": "Lancashire",
    "name2": "Lancashire",
    "country": "United Kingdom",
    "countryCode": "GB",
    "latitude": 53.83333,
    "longitude": -2.5,
    "population": 1210053,
    "area": 3079.0
  },
  {
    "id": 45633,
    "name": "London",
    "name2": "London",
    "country": "United Kingdom",
    "countryCode": "GB",
    "latitude": 51.507222222,
    "longitude": -0.1275,
    "population": 8908081,
    "area": 1570.0
  },
  {
    "id": 3602692,
    "name": "Surrey",
    "name2": "Surrey",
    "country": "United Kingdom",
    "countryCode": "GB",
    "latitude": 51.25,
    "longitude": -0.416666666,
    "population": 1199870,
    "area": 317.4
  },
  {
    "id": 3457110,
    "name": "Sussex",
    "name2": "Sussex",
    "country": "United Kingdom",
    "countryCode": "GB",
    "latitude": 50.947102699,
    "longitude": -0.141372694,
    "population": 1613316,
    "area": 3783.0
  },
  {
    "id": 3600982,
    "name": "Yorkshire",
    "name2": "Yorkshire",
    "country": "United Kingdom",
    "countryCode": "GB",
    "latitude": 53.958333333,
    "longitude": -1.083333333,
    "population": 5234700,
    "area": 11900.0
  },
  {
    "id": 129254,
    "name": "Montevideo",
    "name2": "Montevideo",
    "country": "Uruguay",
    "countryCode": "UY",
    "latitude": -34.866666666,
    "longitude": -56.166666666,
    "population": 1319108,
    "area": 200.7
  },
  {
    "id": 129299,
    "name": "Maracaibo",
    "name2": "Maracaibo",
    "country": "Venezuela",
    "countryCode": "VE",
    "latitude": 10.633333333,
    "longitude": -71.633333333,
    "population": 1551539,
    "area": 1393.41
  },
  {
    "id": 129476,
    "name": "Valencia",
    "name2": "Valencia",
    "country": "Venezuela",
    "countryCode": "VE",
    "latitude": 10.166666666,
    "longitude": -68.0,
    "population": 1696662,
    "area": 134.7
  },
  {
    "id": 129369,
    "name": "Barquisimeto",
    "name2": "Barquisimeto",
    "country": "Venezuela",
    "countryCode": "VE",
    "latitude": 10.067777777,
    "longitude": -69.346694444,
    "population": 1059092,
    "area": 194.0
  },
  {
    "id": 3713920,
    "name": "Kunming",
    "name2": "Kunming",
    "country": "China",
    "countryCode": "CN",
    "latitude": 25.043333333,
    "longitude": 102.706111111,
    "population": 8460000,
    "area": 21500.0
  },
  {
    "id": 3710857,
    "name": "Lahore",
    "name2": "Lahore",
    "country": "Pakistan",
    "countryCode": "PK",
    "latitude": 31.549722222,
    "longitude": 74.343611111,
    "population": 11126285,
    "area": 1770.0
  },
  {
    "id": 3705972,
    "name": "Lanzhou",
    "name2": "Lanzhou",
    "country": "China",
    "countryCode": "CN",
    "latitude": 36.06171,
    "longitude": 103.83177,
    "population": 4359446,
    "area": 13090.0
  },
  {
    "id": 3704081,
    "name": "Lausanne",
    "name2": "Lausanne",
    "country": "Switzerland",
    "countryCode": "CH",
    "latitude": 46.516,
    "longitude": 6.63282,
    "population": 139111,
    "area": 41.37
  },
  {
    "id": 3201969,
    "name": "Lisbon",
    "name2": "Lisbon",
    "country": "Portugal",
    "countryCode": "PT",
    "latitude": 38.72635,
    "longitude": -9.14843,
    "population": 547733,
    "area": 100.05
  },
  {
    "id": 54910,
    "name": "Lucknow",
    "name2": "Lucknow",
    "country": "India",
    "countryCode": "IN",
    "latitude": 26.847,
    "longitude": 80.947,
    "population": 3382000,
    "area": 631.0
  },
  {
    "id": 38517,
    "name": "Lyon",
    "name2": "Lyon",
    "country": "France",
    "countryCode": "FR",
    "latitude": 45.758888888,
    "longitude": 4.841388888,
    "population": 522228,
    "area": 47.87
  },
  {
    "id": 3520100,
    "name": "Madrid",
    "name2": "Madrid",
    "country": "Spain",
    "countryCode": "ES",
    "latitude": 40.416944444,
    "longitude": -3.703333333,
    "population": 3280782,
    "area": 604.3
  },
  {
    "id": 38211,
    "name": "Marseille",
    "name2": "Marseille",
    "country": "France",
    "countryCode": "FR",
    "latitude": 43.296666666,
    "longitude": 5.376388888,
    "population": 870321,
    "area": 240.6
  },
  {
    "id": 3453275,
    "name": "Minsk",
    "name2": "Minsk",
    "country": "Belarus",
    "countryCode": "BY",
    "latitude": 53.9,
    "longitude": 27.56667,
    "population": 1995471,
    "area": 348.8
  },
  {
    "id": 3710202,
    "name": "Moscow",
    "name2": "Moscow",
    "country": "Russia",
    "countryCode": "RU",
    "latitude": 55.755833333,
    "longitude": 37.617777777,
    "population": 13010112,
    "area": 2511.0
  },
  {
    "id": 56521,
    "name": "Mumbai",
    "name2": "Mumbai",
    "country": "India",
    "countryCode": "IN",
    "latitude": 19.075833333,
    "longitude": 72.8775,
    "population": 15414288,
    "area": 603.4
  },
  {
    "id": 55092,
    "name": "Nagpur",
    "name2": "Nagpur",
    "country": "India",
    "countryCode": "IN",
    "latitude": 21.149722222,
    "longitude": 79.080555555,
    "population": 2228018,
    "area": 393.5
  },
  {
    "id": 3712741,
    "name": "Nanchang",
    "name2": "Nanchang",
    "country": "China",
    "countryCode": "CN",
    "latitude": 28.684167,
    "longitude": 115.887222,
    "population": 6255007,
    "area": 7194.0
  },
  {
    "id": 3711190,
    "name": "Nanjing",
    "name2": "Nanjing",
    "country": "China",
    "countryCode": "CN",
    "latitude": 32.060833333,
    "longitude": 118.778888888,
    "population": 9314685,
    "area": 6596.0
  },
  {
    "id": 3711824,
    "name": "Nanning",
    "name2": "Nanning",
    "country": "China",
    "countryCode": "CN",
    "latitude": 22.81667,
    "longitude": 108.31667,
    "population": 8741584,
    "area": 865.08
  },
  {
    "id": 3706432,
    "name": "Nantong",
    "name2": "Nantong",
    "country": "China",
    "countryCode": "CN",
    "latitude": 31.98288,
    "longitude": 120.8873,
    "population": 7726635,
    "area": 865.08
  },
  {
    "id": 56879,
    "name": "Noida",
    "name2": "Noida",
    "country": "India",
    "countryCode": "IN",
    "latitude": 28.57,
    "longitude": 77.32,
    "population": 637272,
    "area": 203.0
  },
  {
    "id": 3668582,
    "name": "Nuremberg",
    "name2": "Nuremberg",
    "country": "Germany",
    "countryCode": "DE",
    "latitude": 49.45421,
    "longitude": 11.07752,
    "population": 515543,
    "area": 186.46
  },
  {
    "id": 3711265,
    "name": "Osaka",
    "name2": "Osaka",
    "country": "Japan",
    "countryCode": "JP",
    "latitude": 34.69375,
    "longitude": 135.502111111,
    "population": 2751862,
    "area": 223.9
  },
  {
    "id": 84848,
    "name": "Panama City",
    "name2": "Panama City",
    "country": "Panama",
    "countryCode": "PA",
    "latitude": 9.0,
    "longitude": -79.5,
    "population": 880691,
    "area": 275.0
  },
  {
    "id": 55198,
    "name": "Pune",
    "name2": "Pune",
    "country": "India",
    "countryCode": "IN",
    "latitude": 18.519574,
    "longitude": 73.855287,
    "population": 5945000,
    "area": 1110.0
  },
  {
    "id": 3706686,
    "name": "Qingdao",
    "name2": "Qingdao",
    "country": "China",
    "countryCode": "CN",
    "latitude": 36.116666666,
    "longitude": 120.4,
    "population": 10071722,
    "area": 10654.0
  },
  {
    "id": 37799,
    "name": "Rennes",
    "name2": "Rennes",
    "country": "France",
    "countryCode": "FR",
    "latitude": 48.114166666,
    "longitude": -1.680833333,
    "population": 220488,
    "area": 50.39
  },
  {
    "id": 3569016,
    "name": "Rotterdam",
    "name2": "Rotterdam",
    "country": "Netherlands",
    "countryCode": "NL",
    "latitude": 51.88246,
    "longitude": 4.28784,
    "population": 655468,
    "area": 324.1
  },
  {
    "id": 3710180,
    "name": "Saint Petersburg",
    "name2": "Saint Petersburg",
    "country": "Russia",
    "countryCode": "RU",
    "latitude": 59.95,
    "longitude": 30.316666666,
    "population": 5384342,
    "area": 1440.0
  },
  {
    "id": 18,
    "name": "San Juan",
    "name2": "San Juan",
    "country": "Puerto Rico",
    "countryCode": "PR",
    "latitude": 18.46633,
    "longitude": -66.10572,
    "population": 3282000,
    "area": 199.4
  },
  {
    "id": 25982,
    "name": "Santo Domingo",
    "name2": "Santo Domingo",
    "country": "Dominican Republic",
    "countryCode": "DO",
    "latitude": 18.476388888,
    "longitude": -69.893333333,
    "population": 1128678,
    "area": 1500.0
  },
  {
    "id": 3712186,
    "name": "Shanghai",
    "name2": "Shanghai",
    "country": "China",
    "countryCode": "CN",
    "latitude": 31.166666666,
    "longitude": 121.466666666,
    "population": 24870895,
    "area": 6340.0
  },
  {
    "id": 3707795,
    "name": "Shaoxing",
    "name2": "Shaoxing",
    "country": "China",
    "countryCode": "CN",
    "latitude": 30.0,
    "longitude": 120.583333333,
    "population": 5270977,
    "area": 8279.0
  },
  {
    "id": 3710834,
    "name": "Shenyang",
    "name2": "Shenyang",
    "country": "China",
    "countryCode": "CN",
    "latitude": 41.8025,
    "longitude": 123.428055555,
    "population": 9070093,
    "area": 12940.0
  },
  {
    "id": 3711605,
    "name": "Shenzhen",
    "name2": "Shenzhen",
    "country": "China",
    "countryCode": "CN",
    "latitude": 22.535,
    "longitude": 114.054,
    "population": 17494398,
    "area": 2050.0
  },
  {
    "id": 3711228,
    "name": "Shijiazhuang",
    "name2": "Shijiazhuang",
    "country": "China",
    "countryCode": "CN",
    "latitude": 38.0425,
    "longitude": 114.51,
    "population": 11235086,
    "area": 15848.14
  },
  {
    "id": 57735,
    "name": "Shiraz",
    "name2": "Shiraz",
    "country": "Iran",
    "countryCode": "IR",
    "latitude": 29.61,
    "longitude": 52.5425,
    "population": 1565572,
    "area": 240.0
  },
  {
    "id": 57370,
    "name": "Tabriz",
    "name2": "Tabriz",
    "country": "Iran",
    "countryCode": "IR",
    "latitude": 38.073888888,
    "longitude": 46.296111111,
    "population": 1558693,
    "area": 324.0
  },
  {
    "id": 3453234,
    "name": "Taipei",
    "name2": "Taipei",
    "country": "Taiwan",
    "countryCode": "TW",
    "latitude": 25.04776,
    "longitude": 121.53185,
    "population": 2603150,
    "area": 271.8
  },
  {
    "id": 3711144,
    "name": "Taiyuan",
    "name2": "Taiyuan",
    "country": "China",
    "countryCode": "CN",
    "latitude": 37.87326,
    "longitude": 112.54245,
    "population": 5304061,
    "area": 6988.0
  },
  {
    "id": 3453051,
    "name": "Taoyuan",
    "name2": "Taoyuan",
    "country": "Taiwan",
    "countryCode": "TW",
    "latitude": 24.895,
    "longitude": 121.24611,
    "population": 2440207,
    "area": 1220.0
  },
  {
    "id": 3710858,
    "name": "Tianjin",
    "name2": "Tianjin",
    "country": "China",
    "countryCode": "CN",
    "latitude": 39.146666666,
    "longitude": 117.205555555,
    "population": 13866009,
    "area": 11946.0
  },
  {
    "id": 34933,
    "name": "Toulouse",
    "name2": "Toulouse",
    "country": "France",
    "countryCode": "FR",
    "latitude": 43.604444444,
    "longitude": 1.443888888,
    "population": 498003,
    "area": 118.3
  },
  {
    "id": 10841,
    "name": "Vancouver",
    "name2": "Vancouver",
    "country": "Canada",
    "countryCode": "CA",
    "latitude": 49.260833333,
    "longitude": -123.113888888,
    "population": 631486,
    "area": 115.18
  },
  {
    "id": 3710881,
    "name": "Wuhan",
    "name2": "Wuhan",
    "country": "China",
    "countryCode": "CN",
    "latitude": 30.587222222,
    "longitude": 114.288055555,
    "population": 12326518,
    "area": 8494.0
  },
  {
    "id": 3707762,
    "name": "Wuxi",
    "name2": "Wuxi",
    "country": "China",
    "countryCode": "CN",
    "latitude": 31.566667,
    "longitude": 120.283333,
    "population": 7462135,
    "area": 4628.0
  },
  {
    "id": 3705844,
    "name": "Xiamen",
    "name2": "Xiamen",
    "country": "China",
    "countryCode": "CN",
    "latitude": 24.479722222,
    "longitude": 118.081944444,
    "population": 5163970,
    "area": 1700.61
  },
  {
    "id": 3710359,
    "name": "Xi'an",
    "name2": "Xian",
    "country": "China",
    "countryCode": "CN",
    "latitude": 34.266666666,
    "longitude": 108.9,
    "population": 12952907,
    "area": 10100.0
  },
  {
    "id": 3711987,
    "name": "Xuzhou",
    "name2": "Xuzhou",
    "country": "China",
    "countryCode": "CN",
    "latitude": 34.26104,
    "longitude": 117.18587,
    "population": 9083790,
    "area": 11260.0
  },
  {
    "id": 3709500,
    "name": "Zhengzhou",
    "name2": "Zhengzhou",
    "country": "China",
    "countryCode": "CN",
    "latitude": 34.74919,
    "longitude": 113.66051,
    "population": 12600574,
    "area": 7567.0
  },
  {
    "id": 20,
    "name": "Nizhny Novgorod",
    "name2": "Nizhniy Novgorod",
    "country": "Russia",
    "countryCode": "RU",
    "latitude": 56.296505,
    "longitude": 43.936058,
    "population": 1251000,
    "area": 411.0
  },
  {
    "id": 21,
    "name": "Taichung",
    "name2": "Taichung",
    "country": "Taiwan",
    "countryCode": "TW",
    "latitude": 24.147736,
    "longitude": 120.673645,
    "population": 2817000,
    "area": 2215.0
  }
]
